{
  "file": "./models/stations.json",
  "stations": [
    {
      "stationname": "London",
      "latitude": "51.50",
      "longitude": "-0.12",
      "userid": "ddf12e79-3b3b-4c97-a247-e388d34ecdad",
      "_id": "663572f3-43ec-4caa-8833-16f2eeefea83"
    },
    {
      "stationname": "Dublin",
      "latitude": "53.34",
      "longitude": "-6.26",
      "userid": "ddf12e79-3b3b-4c97-a247-e388d34ecdad",
      "_id": "f41053d1-ebf9-454a-b669-4cb79f579ae4"
    },
    {
      "stationname": "Madrid",
      "latitude": "40.41",
      "longitude": "-3.70",
      "userid": "ddf12e79-3b3b-4c97-a247-e388d34ecdad",
      "_id": "f6cdbf2d-22ea-4460-a138-4576ecfe5d7a"
    },
    {
      "stationname": "Paris",
      "latitude": "48.85",
      "longitude": "2.32",
      "userid": "ddf12e79-3b3b-4c97-a247-e388d34ecdad",
      "_id": "5c903a6d-2767-4c38-9e80-2e899dac468a"
    },
    {
      "stationname": "New York",
      "latitude": "22.13",
      "longitude": "28.21",
      "userid": "092cd2f3-f8d1-4f60-8c41-08e1ad8ee73a",
      "_id": "420f5f30-9371-4b07-bc8c-a06b3bcb5cc4"
    },
    {
      "stationname": "Lisboa",
      "latitude": "38.7134",
      "longitude": "-9.1407",
      "userid": "ddf12e79-3b3b-4c97-a247-e388d34ecdad",
      "_id": "8f27ec30-27ef-403c-b069-be9b8d7abd89"
    }
  ]
}